$GPGGA,173234.01,3216.5153,N,3450.8924,E,1,04,1.5,1,M,-24,M,,*76
$GPGSA,A,3,,,,,,18,19,,26,28,29,,2.2,2.2,1.0*37
$GPGLL,3216.5153,N,3450.8924,E,173234.01,A*34
$GPRMC,173234.01,A,3216.5153,N,3450.8924,E,1.92,97.1,040609,,*0D
$GPGGA,173235.01,3216.5142,N,3450.8925,E,1,04,1.5,1,M,-24,M,,*76
$GPGSA,A,3,,,,,,18,19,,26,28,29,,2.2,2.2,1.0*37
$GPGLL,3216.5142,N,3450.8925,E,173235.01,A*34
$GPRMC,173235.01,A,3216.5142,N,3450.8925,E,4.82,59.8,040609,,*02
$GPGGA,173236.01,3216.5145,N,3450.8932,E,1,04,1.5,1,M,-24,M,,*74
$GPGSA,A,3,,,,,,18,19,,26,28,29,,2.2,2.2,1.0*37
$GPGLL,3216.5145,N,3450.8932,E,173236.01,A*36
$GPRMC,173236.01,A,3216.5145,N,3450.8932,E,2.95,55.0,040609,,*04
$GPGGA,173237.01,3216.5133,N,3450.8937,E,1,04,1.5,1,M,-24,M,,*71
$GPGSA,A,3,,,,,,18,19,,26,28,29,,2.2,2.2,1.0*37
$GPGLL,3216.5133,N,3450.8937,E,173237.01,A*33
$GPRMC,173237.01,A,3216.5133,N,3450.8937,E,0.86,91.2,040609,,*0B
$GPGGA,173238.01,3216.5129,N,3450.8936,E,1,04,1.5,1,M,-24,M,,*74
$GPGSA,A,3,,,,,,18,19,,26,28,29,,2.2,2.2,1.0*37
$GPGLL,3216.5129,N,3450.8936,E,173238.01,A*36
$GPRMC,173238.01,A,3216.5129,N,3450.8936,E,0.33,200.6,040609,,*3E
$GPGGA,173239.01,3216.5119,N,3450.8932,E,1,04,1.5,1,M,-24,M,,*72
$GPGSA,A,3,,,,,,18,19,,26,28,29,,2.2,2.2,1.0*37
$GPGLL,3216.5119,N,3450.8932,E,173239.01,A*30
$GPRMC,173239.01,A,3216.5119,N,3450.8932,E,0.49,200.1,040609,,*32
$GPGGA,173240.01,3216.5100,N,3450.8906,E,1,04,1.5,1,M,-24,M,,*73
$GPGSA,A,3,,,,,,18,19,,26,28,29,,2.2,2.2,1.0*37
$GPGLL,3216.5100,N,3450.8906,E,173240.01,A*31
$GPRMC,173240.01,A,3216.5100,N,3450.8906,E,0.33,100.9,040609,,*35
$GPGGA,173241.01,3216.5091,N,3450.8899,E,1,04,1.5,1,M,-24,M,,*7C
$GPGSA,A,3,,,,,,18,19,,26,28,29,,2.2,2.2,1.0*37
$GPGLL,3216.5091,N,3450.8899,E,173241.01,A*3E
$GPRMC,173241.01,A,3216.5091,N,3450.8899,E,0.68,95.5,040609,,*05
$GPGGA,173242.01,3216.5082,N,3450.8892,E,1,04,1.5,1,M,-24,M,,*76
$GPGSA,A,3,,,,,,18,19,,26,28,29,,2.2,2.2,1.0*37
$GPGLL,3216.5082,N,3450.8892,E,173242.01,A*34
$GPRMC,173242.01,A,3216.5082,N,3450.8892,E,0.74,86.2,040609,,*07
$GPGGA,173243.01,3216.5078,N,3450.8890,E,1,04,1.5,1,M,-24,M,,*70
$GPGSA,A,3,,,,,,18,19,,26,28,29,,2.2,2.2,1.0*37
$GPGLL,3216.5078,N,3450.8890,E,173243.01,A*32
$GPRMC,173243.01,A,3216.5078,N,3450.8890,E,0.31,116.5,040609,,*3F
$GPGGA,173245.01,3216.5075,N,3450.8888,E,1,04,1.5,1,M,-24,M,,*72
$GPGSA,A,3,,,,,,18,19,,26,28,29,,2.2,2.2,1.0*37
$GPGLL,3216.5075,N,3450.8888,E,173245.01,A*30
$GPRMC,173245.01,A,3216.5075,N,3450.8888,E,0.39,127.7,040609,,*35
$GPGGA,173246.01,3216.5073,N,3450.8890,E,1,04,1.5,1,M,-24,M,,*7E
$GPGSA,A,3,,,,,,18,19,,26,28,29,,2.2,2.2,1.0*37
$GPGLL,3216.5073,N,3450.8890,E,173246.01,A*3C
$GPRMC,173246.01,A,3216.5073,N,3450.8890,E,1.03,82.8,040609,,*00
$GPGGA,173247.01,3216.5069,N,3450.8907,E,1,04,1.5,1,M,-24,M,,*7B
$GPGSA,A,3,,,,,,18,19,,26,28,29,,2.2,2.2,1.0*37
$GPGLL,3216.5069,N,3450.8907,E,173247.01,A*39
$GPRMC,173247.01,A,3216.5069,N,3450.8907,E,5.46,100.8,040609,,*3B
$GPGGA,173248.01,3216.5060,N,3450.8919,E,1,04,1.5,1,M,-24,M,,*72
$GPGSA,A,3,,,,,,18,19,,26,28,29,,2.2,2.2,1.0*37
$GPGLL,3216.5060,N,3450.8919,E,173248.01,A*30
$GPRMC,173248.01,A,3216.5060,N,3450.8919,E,5.23,119.3,040609,,*32
$GPGGA,173249.01,3216.5046,N,3450.8929,E,1,04,1.5,1,M,-24,M,,*74
$GPGSA,A,3,,,,,,18,19,,26,28,29,,2.2,2.2,1.0*37
$GPGLL,3216.5046,N,3450.8929,E,173249.01,A*36
$GPRMC,173249.01,A,3216.5046,N,3450.8929,E,5.21,134.1,040609,,*3B
$GPGGA,173250.01,3216.5034,N,3450.8938,E,1,04,1.5,1,M,-24,M,,*79
$GPGSA,A,3,,,,,,18,19,,26,28,29,,2.2,2.2,1.0*37
$GPGLL,3216.5034,N,3450.8938,E,173250.01,A*3B
$GPRMC,173250.01,A,3216.5034,N,3450.8938,E,5.00,146.9,040609,,*38
$GPGGA,173251.01,3216.5013,N,3450.8950,E,1,04,1.5,1,M,-24,M,,*73
$GPGSA,A,3,,,,,,18,19,,26,28,29,,2.2,2.2,1.0*37
$GPGLL,3216.5013,N,3450.8950,E,173251.01,A*31
$GPRMC,173251.01,A,3216.5013,N,3450.8950,E,8.51,152.6,040609,,*31
$GPGGA,173252.01,3216.4989,N,3450.8966,E,1,04,1.5,1,M,-24,M,,*7E
$GPGSA,A,3,,,,,,18,19,,26,28,29,,2.2,2.2,1.0*37
$GPGLL,3216.4989,N,3450.8966,E,173252.01,A*3C
$GPRMC,173252.01,A,3216.4989,N,3450.8966,E,9.54,146.8,040609,,*33
$GPGGA,173253.01,3216.4962,N,3450.8985,E,1,04,1.5,1,M,-24,M,,*77
$GPGSA,A,3,,,,,,18,19,,26,28,29,,2.2,2.2,1.0*37
$GPGLL,3216.4962,N,3450.8985,E,173253.01,A*35
$GPRMC,173253.01,A,3216.4962,N,3450.8985,E,11.35,149.9,040609,,*0A
$GPGGA,173254.01,3216.4934,N,3450.9006,E,1,04,1.5,1,M,-24,M,,*70
$GPGSA,A,3,,,,,,18,19,,26,28,29,,2.2,2.2,1.0*37
$GPGLL,3216.4934,N,3450.9006,E,173254.01,A*32
$GPRMC,173254.01,A,3216.4934,N,3450.9006,E,12.44,147.5,040609,,*0A
$GPGGA,173255.01,3216.4902,N,3450.9027,E,1,04,1.5,1,M,-24,M,,*77
$GPGSA,A,3,,,,,,18,19,,26,28,29,,2.2,2.2,1.0*37
$GPGLL,3216.4902,N,3450.9027,E,173255.01,A*35
$GPRMC,173255.01,A,3216.4902,N,3450.9027,E,12.85,149.4,040609,,*0F
$GPGGA,173256.01,3216.4868,N,3450.9048,E,1,04,1.5,1,M,-24,M,,*70
$GPGSA,A,3,,,,,,18,19,,26,28,29,,2.2,2.2,1.0*37
$GPGLL,3216.4868,N,3450.9048,E,173256.01,A*32
$GPRMC,173256.01,A,3216.4868,N,3450.9048,E,13.63,151.5,040609,,*09
$GPGGA,173257.01,3216.4833,N,3450.9071,E,1,04,1.5,1,M,-24,M,,*75
$GPGSA,A,3,,,,,,18,19,,26,28,29,,2.2,2.2,1.0*37
$GPGLL,3216.4833,N,3450.9071,E,173257.01,A*37
$GPRMC,173257.01,A,3216.4833,N,3450.9071,E,14.19,150.9,040609,,*0B
$GPGGA,173258.01,3216.4799,N,3450.9090,E,1,04,1.5,1,M,-24,M,,*7A
$GPGSA,A,3,,,,,,18,19,,26,28,29,,2.2,2.2,1.0*37
$GPGLL,3216.4799,N,3450.9090,E,173258.01,A*38
$GPRMC,173258.01,A,3216.4799,N,3450.9090,E,13.94,151.6,040609,,*08
$GPGGA,173259.01,3216.4766,N,3450.9111,E,1,04,1.5,1,M,-24,M,,*73
$GPGSA,A,3,,,,,,18,19,,26,28,29,,2.2,2.2,1.0*37
$GPGLL,3216.4766,N,3450.9111,E,173259.01,A*31
$GPRMC,173259.01,A,3216.4766,N,3450.9111,E,13.59,151.1,040609,,*07
$GPGGA,173300.01,3216.4738,N,3450.9131,E,1,04,1.5,1,M,-24,M,,*77
$GPGSA,A,3,,,,,,18,19,,26,28,29,,2.2,2.2,1.0*37
$GPGLL,3216.4738,N,3450.9131,E,173300.01,A*35
$GPRMC,173300.01,A,3216.4738,N,3450.9131,E,12.97,151.3,040609,,*02
$GPGGA,173301.01,3216.4707,N,3450.9146,E,1,04,1.5,1,M,-24,M,,*7A
$GPGSA,A,3,,,,,,18,19,,26,28,29,,2.2,2.2,1.0*37
$GPGLL,3216.4707,N,3450.9146,E,173301.01,A*38
$GPRMC,173301.01,A,3216.4707,N,3450.9146,E,12.50,157.5,040609,,*04
$GPGGA,173302.01,3216.4674,N,3450.9155,E,1,04,1.5,1,M,-24,M,,*7E
$GPGSA,A,3,,,,,,18,19,,26,28,29,,2.2,2.2,1.0*37
$GPGLL,3216.4674,N,3450.9155,E,173302.01,A*3C
$GPRMC,173302.01,A,3216.4674,N,3450.9155,E,12.54,166.9,040609,,*0A
$GPGGA,173303.01,3216.4641,N,3450.9162,E,1,04,1.5,1,M,-24,M,,*7D
$GPGSA,A,3,,,,,,18,19,,26,28,29,,2.2,2.2,1.0*37
$GPGLL,3216.4641,N,3450.9162,E,173303.01,A*3F
$GPRMC,173303.01,A,3216.4641,N,3450.9162,E,11.74,167.4,040609,,*04
$GPGGA,173304.01,3216.4613,N,3450.9173,E,1,04,1.5,1,M,-24,M,,*7D
$GPGSA,A,3,,,,,,18,19,,26,28,29,,2.2,2.2,1.0*37
$GPGLL,3216.4613,N,3450.9173,E,173304.01,A*3F
$GPRMC,173304.01,A,3216.4613,N,3450.9173,E,10.71,157.2,040609,,*05
$GPGGA,173305.01,3216.4599,N,3450.9199,E,1,04,1.5,1,M,-24,M,,*79
$GPGSA,A,3,,,,,,18,19,,26,28,29,,2.2,2.2,1.0*37
$GPGLL,3216.4599,N,3450.9199,E,173305.01,A*3B
$GPRMC,173305.01,A,3216.4599,N,3450.9199,E,9.51,122.0,040609,,*3B
$GPGGA,173306.01,3216.4602,N,3450.9225,E,1,04,1.5,1,M,-24,M,,*7F
$GPGSA,A,3,,,,,,18,19,,26,28,29,,2.2,2.2,1.0*37
$GPGLL,3216.4602,N,3450.9225,E,173306.01,A*3D
$GPRMC,173306.01,A,3216.4602,N,3450.9225,E,7.93,80.6,040609,,*02
$GPGGA,173307.01,3216.4614,N,3450.9248,E,1,04,1.5,1,M,-24,M,,*72
$GPGSA,A,3,,,,,,18,19,,26,28,29,,2.2,2.2,1.0*37
$GPGLL,3216.4614,N,3450.9248,E,173307.01,A*30
$GPRMC,173307.01,A,3216.4614,N,3450.9248,E,7.95,59.7,040609,,*0C
$GPGGA,173308.01,3216.4641,N,3450.9255,E,1,04,1.5,1,M,-24,M,,*71
$GPGSA,A,3,,,,,,18,19,,26,28,29,,2.2,2.2,1.0*37
$GPGLL,3216.4641,N,3450.9255,E,173308.01,A*33
$GPRMC,173308.01,A,3216.4641,N,3450.9255,E,9.74,11.0,040609,,*05
$GPGGA,173309.01,3216.4667,N,3450.9241,E,1,04,1.5,1,M,-24,M,,*71
$GPGSA,A,3,,,,,,18,19,,26,28,29,,2.2,2.2,1.0*37
$GPGLL,3216.4667,N,3450.9241,E,173309.01,A*33
$GPRMC,173309.01,A,3216.4667,N,3450.9241,E,9.93,338.8,040609,,*3C
$GPGGA,173310.01,3216.4686,N,3450.9221,E,1,04,1.5,1,M,-24,M,,*70
$GPGSA,A,3,,,,,,18,19,,26,28,29,,2.2,2.2,1.0*37
$GPGLL,3216.4686,N,3450.9221,E,173310.01,A*32
$GPRMC,173310.01,A,3216.4686,N,3450.9221,E,8.96,318.3,040609,,*30
$GPGGA,173311.01,3216.4706,N,3450.9193,E,1,04,1.5,1,M,-24,M,,*72
$GPGSA,A,3,,,,,,18,19,,26,28,29,,2.2,2.2,1.0*37
$GPGLL,3216.4706,N,3450.9193,E,173311.01,A*30
$GPRMC,173311.01,A,3216.4706,N,3450.9193,E,11.12,310.0,040609,,*0D
$GPGGA,173312.01,3216.4733,N,3450.9160,E,1,04,1.5,1,M,-24,M,,*7B
$GPGSA,A,3,,,,,,18,19,,26,28,29,,2.2,2.2,1.0*37
$GPGLL,3216.4733,N,3450.9160,E,173312.01,A*39
$GPRMC,173312.01,A,3216.4733,N,3450.9160,E,13.76,313.1,040609,,*06
$GPGGA,173313.01,3216.4770,N,3450.9131,E,1,04,1.5,1,M,-24,M,,*79
$GPGSA,A,3,,,,,,18,19,,26,28,29,,2.2,2.2,1.0*37
$GPGLL,3216.4770,N,3450.9131,E,173313.01,A*3B
$GPRMC,173313.01,A,3216.4770,N,3450.9131,E,15.82,326.0,040609,,*0E
$GPGGA,173314.01,3216.4809,N,3450.9098,E,1,04,1.5,1,M,-24,M,,*7D
$GPGSA,A,3,,,,,,18,19,,26,28,29,,2.2,2.2,1.0*37
$GPGLL,3216.4809,N,3450.9098,E,173314.01,A*3F
$GPRMC,173314.01,A,3216.4809,N,3450.9098,E,17.30,325.6,040609,,*04
$GPGGA,173315.01,3216.4854,N,3450.9064,E,1,04,1.5,1,M,-24,M,,*77
$GPGSA,A,3,,,,,,18,19,,26,28,29,,2.2,2.2,1.0*37
$GPGLL,3216.4854,N,3450.9064,E,173315.01,A*35
$GPRMC,173315.01,A,3216.4854,N,3450.9064,E,19.42,327.1,040609,,*00
$GPGGA,173316.01,3216.4904,N,3450.9026,E,1,04,1.5,1,M,-24,M,,*76
$GPGSA,A,3,,,,,,18,19,,26,28,29,,2.2,2.2,1.0*37
$GPGLL,3216.4904,N,3450.9026,E,173316.01,A*34
$GPRMC,173316.01,A,3216.4904,N,3450.9026,E,20.82,328.5,040609,,*0C
$GPGGA,173317.01,3216.4958,N,3450.8989,E,1,04,1.5,1,M,-24,M,,*73
$GPGSA,A,3,,,,,,18,19,,26,28,29,,2.2,2.2,1.0*37
$GPGLL,3216.4958,N,3450.8989,E,173317.01,A*31
$GPRMC,173317.01,A,3216.4958,N,3450.8989,E,22.26,331.6,040609,,*0E
$GPGGA,173318.01,3216.5013,N,3450.8951,E,1,04,1.5,1,M,-24,M,,*7E
$GPGSA,A,3,,,,,,18,19,,26,28,29,,2.2,2.2,1.0*37
$GPGLL,3216.5013,N,3450.8951,E,173318.01,A*3C
$GPRMC,173318.01,A,3216.5013,N,3450.8951,E,22.88,329.8,040609,,*00
$GPGGA,173319.01,3216.5071,N,3450.8911,E,1,04,1.5,1,M,-24,M,,*7F
$GPGSA,A,3,,,,,,18,19,,26,28,29,,2.2,2.2,1.0*37
$GPGLL,3216.5071,N,3450.8911,E,173319.01,A*3D
$GPRMC,173319.01,A,3216.5071,N,3450.8911,E,24.01,330.5,040609,,*03
$GPGGA,173320.01,3216.5130,N,3450.8870,E,1,04,1.5,1,M,-24,M,,*77
$GPGSA,A,3,,,,,,18,19,,26,28,29,,2.2,2.2,1.0*37
$GPGLL,3216.5130,N,3450.8870,E,173320.01,A*35
$GPRMC,173320.01,A,3216.5130,N,3450.8870,E,24.76,329.8,040609,,*0E
$GPGGA,173321.01,3216.5191,N,3450.8827,E,1,04,1.5,1,M,-24,M,,*7F
$GPGSA,A,3,,,,,,18,19,,26,28,29,,2.2,2.2,1.0*37
$GPGLL,3216.5191,N,3450.8827,E,173321.01,A*3D
$GPRMC,173321.01,A,3216.5191,N,3450.8827,E,25.27,330.0,040609,,*03
$GPGGA,173322.01,3216.5253,N,3450.8783,E,1,04,1.5,1,M,-24,M,,*70
$GPGSA,A,3,,,,,,18,19,,26,28,29,,2.2,2.2,1.0*37
$GPGLL,3216.5253,N,3450.8783,E,173322.01,A*32
$GPRMC,173322.01,A,3216.5253,N,3450.8783,E,25.91,328.7,040609,,*0F
$GPGGA,173323.01,3216.5318,N,3450.8740,E,1,04,1.5,1,M,-24,M,,*70
$GPGSA,A,3,,,,,,18,19,,26,28,29,,2.2,2.2,1.0*37
$GPGLL,3216.5318,N,3450.8740,E,173323.01,A*32
$GPRMC,173323.01,A,3216.5318,N,3450.8740,E,26.61,330.4,040609,,*09
$GPGGA,173324.01,3216.5379,N,3450.8694,E,1,04,1.5,1,M,-24,M,,*78
$GPGSA,A,3,,,,,,18,19,,26,28,29,,2.2,2.2,1.0*37
$GPGLL,3216.5379,N,3450.8694,E,173324.01,A*3A
$GPRMC,173324.01,A,3216.5379,N,3450.8694,E,26.11,327.8,040609,,*0C
$GPGGA,173325.01,3216.5443,N,3450.8652,E,1,04,1.5,1,M,-24,M,,*7D
$GPGSA,A,3,,,,,,18,19,,26,28,29,,2.2,2.2,1.0*37
$GPGLL,3216.5443,N,3450.8652,E,173325.01,A*3F
$GPRMC,173325.01,A,3216.5443,N,3450.8652,E,26.11,330.1,040609,,*06
$GPGGA,173326.01,3216.5505,N,3450.8609,E,1,04,1.5,1,M,-24,M,,*73
$GPGSA,A,3,,,,,,18,19,,26,28,29,,2.2,2.2,1.0*37
$GPGLL,3216.5505,N,3450.8609,E,173326.01,A*31
$GPRMC,173326.01,A,3216.5505,N,3450.8609,E,25.87,329.4,040609,,*09
$GPGGA,173327.01,3216.5568,N,3450.8567,E,1,04,1.5,1,M,-24,M,,*72
$GPGSA,A,3,,,,,,18,19,,26,28,29,,2.2,2.2,1.0*37
$GPGLL,3216.5568,N,3450.8567,E,173327.01,A*30
$GPRMC,173327.01,A,3216.5568,N,3450.8567,E,25.93,330.1,040609,,*00
$GPGGA,173328.01,3216.5634,N,3450.8528,E,1,04,1.5,1,M,-24,M,,*7C
$GPGSA,A,3,,,,,,18,19,,26,28,29,,2.2,2.2,1.0*37
$GPGLL,3216.5634,N,3450.8528,E,173328.01,A*3E
$GPRMC,173328.01,A,3216.5634,N,3450.8528,E,26.38,333.0,040609,,*0E
$GPGGA,173329.01,3216.5697,N,3450.8489,E,1,04,1.5,1,M,-24,M,,*7E
$GPGSA,A,3,,,,,,18,19,,26,28,29,,2.2,2.2,1.0*37
$GPGLL,3216.5697,N,3450.8489,E,173329.01,A*3C
$GPRMC,173329.01,A,3216.5697,N,3450.8489,E,25.56,332.5,040609,,*03
$GPGGA,173330.01,3216.5759,N,3450.8451,E,1,04,1.5,1,M,-24,M,,*70
$GPGSA,A,3,,,,,,18,19,,26,28,29,,2.2,2.2,1.0*37
$GPGLL,3216.5759,N,3450.8451,E,173330.01,A*32
$GPRMC,173330.01,A,3216.5759,N,3450.8451,E,25.08,331.2,040609,,*02
$GPGGA,173331.01,3216.5820,N,3450.8415,E,1,04,1.5,1,M,-24,M,,*70
$GPGSA,A,3,,,,,,18,19,,26,28,29,,2.2,2.2,1.0*37
$GPGLL,3216.5820,N,3450.8415,E,173331.01,A*32
$GPRMC,173331.01,A,3216.5820,N,3450.8415,E,24.32,332.4,040609,,*0F
$GPGGA,173332.01,3216.5877,N,3450.8381,E,1,04,1.5,1,M,-24,M,,*7B
$GPGSA,A,3,,,,,,18,19,,26,28,29,,2.2,2.2,1.0*37
$GPGLL,3216.5877,N,3450.8381,E,173332.01,A*39
$GPRMC,173332.01,A,3216.5877,N,3450.8381,E,23.15,332.4,040609,,*06
$GPGGA,173333.01,3216.5930,N,3450.8349,E,1,04,1.5,1,M,-24,M,,*7C
$GPGSA,A,3,,,,,,18,19,,26,28,29,,2.2,2.2,1.0*37
$GPGLL,3216.5930,N,3450.8349,E,173333.01,A*3E
$GPRMC,173333.01,A,3216.5930,N,3450.8349,E,20.86,330.9,040609,,*07
$GPGGA,173334.01,3216.5974,N,3450.8325,E,1,04,1.5,1,M,-24,M,,*71
$GPGSA,A,3,,,,,,18,19,,26,28,29,,2.2,2.2,1.0*37
$GPGLL,3216.5974,N,3450.8325,E,173334.01,A*33
$GPRMC,173334.01,A,3216.5974,N,3450.8325,E,17.51,335.5,040609,,*0D
$GPGGA,173335.01,3216.6021,N,3450.8303,E,1,04,1.5,1,M,-24,M,,*7E
$GPGSA,A,3,,,,,,18,19,,26,28,29,,2.2,2.2,1.0*37
$GPGLL,3216.6021,N,3450.8303,E,173335.01,A*3C
$GPRMC,173335.01,A,3216.6021,N,3450.8303,E,18.10,338.8,040609,,*08
$GPGGA,173336.01,3216.6045,N,3450.8330,E,1,04,1.5,1,M,-24,M,,*7F
$GPGSA,A,3,,,,,,18,19,,26,28,29,,2.2,2.2,1.0*37
$GPGLL,3216.6045,N,3450.8330,E,173336.01,A*3D
$GPRMC,173336.01,A,3216.6045,N,3450.8330,E,12.79,43.2,040609,,*39
$GPGGA,173337.01,3216.6068,N,3450.8360,E,1,04,1.5,1,M,-24,M,,*74
$GPGSA,A,3,,,,,,18,19,,26,28,29,,2.2,2.2,1.0*37
$GPGLL,3216.6068,N,3450.8360,E,173337.01,A*36
$GPRMC,173337.01,A,3216.6068,N,3450.8360,E,12.85,49.3,040609,,*3A
$GPGGA,173338.01,3216.6092,N,3450.8401,E,1,04,1.5,1,M,-24,M,,*7E
$GPGSA,A,3,,,,,,18,19,,26,28,29,,2.2,2.2,1.0*37
$GPGLL,3216.6092,N,3450.8401,E,173338.01,A*3C
$GPRMC,173338.01,A,3216.6092,N,3450.8401,E,14.83,55.7,040609,,*39
$GPGGA,173339.01,3216.6117,N,3450.8449,E,1,04,1.5,1,M,-24,M,,*7F
$GPGSA,A,3,,,,,,18,19,,26,28,29,,2.2,2.2,1.0*37
$GPGLL,3216.6117,N,3450.8449,E,173339.01,A*3D
$GPRMC,173339.01,A,3216.6117,N,3450.8449,E,16.99,58.9,040609,,*32
$GPGGA,173340.01,3216.6143,N,3450.8504,E,1,04,1.5,1,M,-24,M,,*78
$GPGSA,A,3,,,,,,18,19,,26,28,29,,2.2,2.2,1.0*37
$GPGLL,3216.6143,N,3450.8504,E,173340.01,A*3A
$GPRMC,173340.01,A,3216.6143,N,3450.8504,E,19.59,60.6,040609,,*32
$GPGGA,173341.01,3216.6170,N,3450.8563,E,1,04,1.5,1,M,-24,M,,*78
$GPGSA,A,3,,,,,,18,19,,26,28,29,,2.2,2.2,1.0*37
$GPGLL,3216.6170,N,3450.8563,E,173341.01,A*3A
$GPRMC,173341.01,A,3216.6170,N,3450.8563,E,22.20,60.3,040609,,*31
$GPGGA,173342.01,3216.6201,N,3450.8630,E,1,04,1.5,1,M,-24,M,,*7B
$GPGSA,A,3,,,,,,18,19,,26,28,29,,2.2,2.2,1.0*37
$GPGLL,3216.6201,N,3450.8630,E,173342.01,A*39
$GPRMC,173342.01,A,3216.6201,N,3450.8630,E,24.03,60.0,040609,,*36
$GPGGA,173343.01,3216.6234,N,3450.8700,E,1,04,1.5,1,M,-24,M,,*7E
$GPGSA,A,3,,,,,,18,19,,26,28,29,,2.2,2.2,1.0*37
$GPGLL,3216.6234,N,3450.8700,E,173343.01,A*3C
$GPRMC,173343.01,A,3216.6234,N,3450.8700,E,25.13,59.7,040609,,*3E
$GPGGA,173344.01,3216.6270,N,3450.8775,E,1,04,1.5,1,M,-24,M,,*7B
$GPGSA,A,3,,,,,,18,19,,26,28,29,,2.2,2.2,1.0*37
$GPGLL,3216.6270,N,3450.8775,E,173344.01,A*39
$GPRMC,173344.01,A,3216.6270,N,3450.8775,E,26.16,60.0,040609,,*30
$GPGGA,173345.01,3216.6308,N,3450.8853,E,1,04,1.5,1,M,-24,M,,*7F
$GPGSA,A,3,,,,,,18,19,,26,28,29,,2.2,2.2,1.0*37
$GPGLL,3216.6308,N,3450.8853,E,173345.01,A*3D
$GPRMC,173345.01,A,3216.6308,N,3450.8853,E,27.45,60.2,040609,,*31
$GPGGA,173346.01,3216.6346,N,3450.8934,E,1,04,1.5,1,M,-24,M,,*76
$GPGSA,A,3,,,,,,18,19,,26,28,29,,2.2,2.2,1.0*37
$GPGLL,3216.6346,N,3450.8934,E,173346.01,A*34
$GPRMC,173346.01,A,3216.6346,N,3450.8934,E,28.32,60.4,040609,,*31
$GPGGA,173347.01,3216.6386,N,3450.9016,E,1,04,1.5,1,M,-24,M,,*73
$GPGSA,A,3,,,,,,18,19,,26,28,29,,2.2,2.2,1.0*37
$GPGLL,3216.6386,N,3450.9016,E,173347.01,A*31
$GPRMC,173347.01,A,3216.6386,N,3450.9016,E,28.81,60.3,040609,,*3B
$GPGGA,173348.01,3216.6425,N,3450.9099,E,1,04,1.5,1,M,-24,M,,*75
$GPGSA,A,3,,,,,,18,19,,26,28,29,,2.2,2.2,1.0*37
$GPGLL,3216.6425,N,3450.9099,E,173348.01,A*37
$GPRMC,173348.01,A,3216.6425,N,3450.9099,E,28.96,60.2,040609,,*3A
$GPGGA,173349.01,3216.6464,N,3450.9180,E,1,04,1.5,1,M,-24,M,,*78
$GPGSA,A,3,,,,,,18,19,,26,28,29,,2.2,2.2,1.0*37
$GPGLL,3216.6464,N,3450.9180,E,173349.01,A*3A
$GPRMC,173349.01,A,3216.6464,N,3450.9180,E,28.96,60.7,040609,,*32
$GPGGA,173350.01,3216.6503,N,3450.9263,E,1,04,1.5,1,M,-24,M,,*7E
$GPGSA,A,3,,,,,,18,19,,26,28,29,,2.2,2.2,1.0*37
$GPGLL,3216.6503,N,3450.9263,E,173350.01,A*3C
$GPRMC,173350.01,A,3216.6503,N,3450.9263,E,29.37,61.2,040609,,*3A
$GPGGA,173351.01,3216.6541,N,3450.9347,E,1,04,1.5,1,M,-24,M,,*7E
$GPGSA,A,3,,,,,,18,19,,26,28,29,,2.2,2.2,1.0*37
$GPGLL,3216.6541,N,3450.9347,E,173351.01,A*3C
$GPRMC,173351.01,A,3216.6541,N,3450.9347,E,29.22,61.7,040609,,*3B
$GPGGA,173352.01,3216.6578,N,3450.9429,E,1,04,1.5,1,M,-24,M,,*78
$GPGSA,A,3,,,,,,18,19,,26,28,29,,2.2,2.2,1.0*37
$GPGLL,3216.6578,N,3450.9429,E,173352.01,A*3A
$GPRMC,173352.01,A,3216.6578,N,3450.9429,E,28.57,61.8,040609,,*31
$GPGGA,173353.01,3216.6612,N,3450.9508,E,1,04,1.5,1,M,-24,M,,*74
$GPGSA,A,3,,,,,,18,19,,26,28,29,,2.2,2.2,1.0*37
$GPGLL,3216.6612,N,3450.9508,E,173353.01,A*36
$GPRMC,173353.01,A,3216.6612,N,3450.9508,E,26.88,62.5,040609,,*3F
$GPGGA,173354.01,3216.6638,N,3450.9573,E,1,04,1.5,1,M,-24,M,,*77
$GPGSA,A,3,,,,,,18,19,,26,28,29,,2.2,2.2,1.0*37
$GPGLL,3216.6638,N,3450.9573,E,173354.01,A*35
$GPRMC,173354.01,A,3216.6638,N,3450.9573,E,21.81,64.4,040609,,*35
$GPGGA,173355.01,3216.6665,N,3450.9634,E,1,04,1.5,1,M,-24,M,,*7E
$GPGSA,A,3,,,,,,18,19,,26,28,29,,2.2,2.2,1.0*37
$GPGLL,3216.6665,N,3450.9634,E,173355.01,A*3C
$GPRMC,173355.01,A,3216.6665,N,3450.9634,E,20.99,62.1,040609,,*37
$GPGGA,173356.01,3216.6685,N,3450.9682,E,1,04,1.5,1,M,-24,M,,*7E
$GPGSA,A,3,,,,,,18,19,,26,28,29,,2.2,2.2,1.0*37
$GPGLL,3216.6685,N,3450.9682,E,173356.01,A*3C
$GPRMC,173356.01,A,3216.6685,N,3450.9682,E,16.46,63.5,040609,,*35
$GPGGA,173357.01,3216.6698,N,3450.9722,E,1,04,1.5,1,M,-24,M,,*78
$GPGSA,A,3,,,,,,18,19,,26,28,29,,2.2,2.2,1.0*37
$GPGLL,3216.6698,N,3450.9722,E,173357.01,A*3A
$GPRMC,173357.01,A,3216.6698,N,3450.9722,E,12.85,68.3,040609,,*35
$GPGGA,173358.01,3216.6702,N,3450.9750,E,1,04,1.5,1,M,-24,M,,*70
$GPGSA,A,3,,,,,,18,19,,26,28,29,,2.2,2.2,1.0*37
$GPGLL,3216.6702,N,3450.9750,E,173358.01,A*32
$GPRMC,173358.01,A,3216.6702,N,3450.9750,E,8.38,80.2,040609,,*07
$GPGGA,173359.01,3216.6703,N,3450.9767,E,1,04,1.5,1,M,-24,M,,*74
$GPGSA,A,3,,,,,,18,19,,26,28,29,,2.2,2.2,1.0*37
$GPGLL,3216.6703,N,3450.9767,E,173359.01,A*36
$GPRMC,173359.01,A,3216.6703,N,3450.9767,E,5.07,87.3,040609,,*04
$GPGGA,173400.01,3216.6705,N,3450.9772,E,1,04,1.5,1,M,-24,M,,*7D
$GPGSA,A,3,,,,,,18,19,,26,28,29,,2.2,2.2,1.0*37
$GPGLL,3216.6705,N,3450.9772,E,173400.01,A*3F
$GPRMC,173400.01,A,3216.6705,N,3450.9772,E,1.09,87.4,040609,,*00
$GPGGA,173401.01,3216.6707,N,3450.9774,E,1,04,1.5,1,M,-24,M,,*78
$GPGSA,A,3,,,,,,18,19,,26,28,29,,2.2,2.2,1.0*37
$GPGLL,3216.6707,N,3450.9774,E,173401.01,A*3A
$GPRMC,173401.01,A,3216.6707,N,3450.9774,E,0.08,117.8,040609,,*31
$GPGGA,173402.01,3216.6707,N,3450.9774,E,1,04,1.5,1,M,-24,M,,*7B
$GPGSA,A,3,,,,,,18,19,,26,28,29,,2.2,2.2,1.0*37
$GPGLL,3216.6707,N,3450.9774,E,173402.01,A*39
$GPRMC,173402.01,A,3216.6707,N,3450.9774,E,0.12,191.0,040609,,*3F
$GPGGA,173403.01,3216.6708,N,3450.9775,E,1,04,1.5,1,M,-24,M,,*74
$GPGSA,A,3,,,,,,18,19,,26,28,29,,2.2,2.2,1.0*37
$GPGLL,3216.6708,N,3450.9775,E,173403.01,A*36
$GPRMC,173403.01,A,3216.6708,N,3450.9775,E,0.08,233.2,040609,,*32
$GPGGA,173404.01,3216.6708,N,3450.9775,E,1,04,1.5,1,M,-24,M,,*73
$GPGSA,A,3,,,,,,18,19,,26,28,29,,2.2,2.2,1.0*37
$GPGLL,3216.6708,N,3450.9775,E,173404.01,A*31
$GPRMC,173404.01,A,3216.6708,N,3450.9775,E,0.16,188.5,040609,,*3E
$GPGGA,173405.01,3216.6709,N,3450.9776,E,1,04,1.5,1,M,-24,M,,*70
$GPGSA,A,3,,,,,,18,19,,26,28,29,,2.2,2.2,1.0*37
$GPGLL,3216.6709,N,3450.9776,E,173405.01,A*32
$GPRMC,173405.01,A,3216.6709,N,3450.9776,E,0.14,185.3,040609,,*34
$GPGGA,173406.01,3216.6710,N,3450.9776,E,1,04,1.5,1,M,-24,M,,*7B
$GPGSA,A,3,,,,,,18,19,,26,28,29,,2.2,2.2,1.0*37
$GPGLL,3216.6710,N,3450.9776,E,173406.01,A*39
$GPRMC,173406.01,A,3216.6710,N,3450.9776,E,0.10,183.3,040609,,*3D
$GPGGA,173407.01,3216.6710,N,3450.9777,E,1,04,1.5,1,M,-24,M,,*7B
$GPGSA,A,3,,,,,,18,19,,26,28,29,,2.2,2.2,1.0*37
$GPGLL,3216.6710,N,3450.9777,E,173407.01,A*39
$GPRMC,173407.01,A,3216.6710,N,3450.9777,E,0.10,189.4,040609,,*30
$GPGGA,173408.01,3216.6710,N,3450.9777,E,1,04,1.5,1,M,-24,M,,*74
$GPGSA,A,3,,,,,,18,19,,26,28,29,,2.2,2.2,1.0*37
$GPGLL,3216.6710,N,3450.9777,E,173408.01,A*36
$GPRMC,173408.01,A,3216.6710,N,3450.9777,E,0.08,168.0,040609,,*3D
$GPGGA,173409.01,3216.6711,N,3450.9777,E,1,04,1.5,1,M,-24,M,,*74
$GPGSA,A,3,,,,,,18,19,,26,28,29,,2.2,2.2,1.0*37
$GPGLL,3216.6711,N,3450.9777,E,173409.01,A*36
$GPRMC,173409.01,A,3216.6711,N,3450.9777,E,0.10,172.8,040609,,*37
$GPGGA,173410.01,3216.6711,N,3450.9778,E,1,04,1.5,1,M,-24,M,,*73
$GPGSA,A,3,,,,,,18,19,,26,28,29,,2.2,2.2,1.0*37
$GPGLL,3216.6711,N,3450.9778,E,173410.01,A*31
$GPRMC,173410.01,A,3216.6711,N,3450.9778,E,0.10,197.9,040609,,*3A
$GPGGA,173411.01,3216.6711,N,3450.9778,E,1,04,1.5,1,M,-24,M,,*72
$GPGSA,A,3,,,,,,18,19,,26,28,29,,2.2,2.2,1.0*37
$GPGLL,3216.6711,N,3450.9778,E,173411.01,A*30
$GPRMC,173411.01,A,3216.6711,N,3450.9778,E,0.14,178.0,040609,,*37
$GPGGA,173412.01,3216.6711,N,3450.9778,E,1,04,1.5,1,M,-24,M,,*71
$GPGSA,A,3,,,,,,18,19,,26,28,29,,2.2,2.2,1.0*37
$GPGLL,3216.6711,N,3450.9778,E,173412.01,A*33
$GPRMC,173412.01,A,3216.6711,N,3450.9778,E,0.12,190.4,040609,,*30
$GPGGA,173413.01,3216.6711,N,3450.9778,E,1,04,1.5,1,M,-24,M,,*70
$GPGSA,A,3,,,,,,18,19,,26,28,29,,2.2,2.2,1.0*37
$GPGLL,3216.6711,N,3450.9778,E,173413.01,A*32
$GPRMC,173413.01,A,3216.6711,N,3450.9778,E,0.16,193.4,040609,,*36
$GPGGA,173414.01,3216.6711,N,3450.9778,E,1,04,1.5,1,M,-24,M,,*77
$GPGSA,A,3,,,,,,18,19,,26,28,29,,2.2,2.2,1.0*37
$GPGLL,3216.6711,N,3450.9778,E,173414.01,A*35
$GPRMC,173414.01,A,3216.6711,N,3450.9778,E,0.10,180.1,040609,,*30
$GPGGA,173415.01,3216.6711,N,3450.9777,E,1,04,1.5,1,M,-24,M,,*79
$GPGSA,A,3,,,,,,18,19,,26,28,29,,2.2,2.2,1.0*37
$GPGLL,3216.6711,N,3450.9777,E,173415.01,A*3B
$GPRMC,173415.01,A,3216.6711,N,3450.9777,E,0.10,177.6,040609,,*31
$GPGGA,173416.01,3216.6712,N,3450.9777,E,1,04,1.5,1,M,-24,M,,*79
$GPGSA,A,3,,,,,,18,19,,26,28,29,,2.2,2.2,1.0*37
$GPGLL,3216.6712,N,3450.9777,E,173416.01,A*3B
$GPRMC,173416.01,A,3216.6712,N,3450.9777,E,0.12,181.5,040609,,*39
$GPGGA,173417.01,3216.6712,N,3450.9777,E,1,04,1.5,1,M,-24,M,,*78
$GPGSA,A,3,,,,,,18,19,,26,28,29,,2.2,2.2,1.0*37
$GPGLL,3216.6712,N,3450.9777,E,173417.01,A*3A
$GPRMC,173417.01,A,3216.6712,N,3450.9777,E,0.12,188.1,040609,,*35
$GPGGA,173418.01,3216.6712,N,3450.9777,E,1,04,1.5,1,M,-24,M,,*77
$GPGSA,A,3,,,,,,18,19,,26,28,29,,2.2,2.2,1.0*37
$GPGLL,3216.6712,N,3450.9777,E,173418.01,A*35
$GPRMC,173418.01,A,3216.6712,N,3450.9777,E,0.14,175.6,040609,,*39
$GPGGA,173419.01,3216.6712,N,3450.9777,E,1,04,1.5,1,M,-24,M,,*76
$GPGSA,A,3,,,,,,18,19,,26,28,29,,2.2,2.2,1.0*37
$GPGLL,3216.6712,N,3450.9777,E,173419.01,A*34
$GPRMC,173419.01,A,3216.6712,N,3450.9777,E,0.14,192.8,040609,,*3F
$GPGGA,173420.01,3216.6711,N,3450.9777,E,1,04,1.5,1,M,-24,M,,*7F
$GPGSA,A,3,,,,,,18,19,,26,28,29,,2.2,2.2,1.0*37
$GPGLL,3216.6711,N,3450.9777,E,173420.01,A*3D
$GPRMC,173420.01,A,3216.6711,N,3450.9777,E,0.12,194.2,040609,,*3C
$GPGGA,173421.01,3216.6711,N,3450.9777,E,1,04,1.5,1,M,-24,M,,*7E
$GPGSA,A,3,,,,,,18,19,,26,28,29,,2.2,2.2,1.0*37
$GPGLL,3216.6711,N,3450.9777,E,173421.01,A*3C
$GPRMC,173421.01,A,3216.6711,N,3450.9777,E,0.14,184.0,040609,,*38
$GPGGA,173422.01,3216.6711,N,3450.9777,E,1,04,1.5,1,M,-24,M,,*7D
$GPGSA,A,3,,,,,,18,19,,26,28,29,,2.2,2.2,1.0*37
$GPGLL,3216.6711,N,3450.9777,E,173422.01,A*3F
$GPRMC,173422.01,A,3216.6711,N,3450.9777,E,0.06,158.9,040609,,*30
$GPGGA,173423.01,3216.6711,N,3450.9777,E,1,04,1.5,1,M,-24,M,,*7C
$GPGSA,A,3,,,,,,18,19,,26,28,29,,2.2,2.2,1.0*37
$GPGLL,3216.6711,N,3450.9777,E,173423.01,A*3E
$GPRMC,173423.01,A,3216.6711,N,3450.9777,E,0.08,183.6,040609,,*36
$GPGGA,173424.01,3216.6711,N,3450.9777,E,1,04,1.5,1,M,-24,M,,*7B
$GPGSA,A,3,,,,,,18,19,,26,28,29,,2.2,2.2,1.0*37
$GPGLL,3216.6711,N,3450.9777,E,173424.01,A*39
$GPRMC,173424.01,A,3216.6711,N,3450.9777,E,0.06,176.9,040609,,*3A
$GPGGA,173425.01,3216.6711,N,3450.9777,E,1,04,1.5,1,M,-24,M,,*7A
$GPGSA,A,3,,,,,,18,19,,26,28,29,,2.2,2.2,1.0*37
$GPGLL,3216.6711,N,3450.9777,E,173425.01,A*38
$GPRMC,173425.01,A,3216.6711,N,3450.9777,E,0.14,170.7,040609,,*30
$GPGGA,173426.01,3216.6711,N,3450.9777,E,1,04,1.5,1,M,-24,M,,*79
$GPGSA,A,3,,,,,,18,19,,26,28,29,,2.2,2.2,1.0*37
$GPGLL,3216.6711,N,3450.9777,E,173426.01,A*3B
$GPRMC,173426.01,A,3216.6711,N,3450.9777,E,0.14,180.4,040609,,*3F
$GPGGA,173427.01,3216.6711,N,3450.9777,E,1,04,1.5,1,M,-24,M,,*78
$GPGSA,A,3,,,,,,18,19,,26,28,29,,2.2,2.2,1.0*37
$GPGLL,3216.6711,N,3450.9777,E,173427.01,A*3A
$GPRMC,173427.01,A,3216.6711,N,3450.9777,E,0.14,185.0,040609,,*3F
$GPGGA,173428.01,3216.6711,N,3450.9777,E,1,04,1.5,1,M,-24,M,,*77
$GPGSA,A,3,,,,,,18,19,,26,28,29,,2.2,2.2,1.0*37
$GPGLL,3216.6711,N,3450.9777,E,173428.01,A*35
$GPRMC,173428.01,A,3216.6711,N,3450.9777,E,0.14,176.0,040609,,*3C
$GPGGA,173429.01,3216.6711,N,3450.9777,E,1,04,1.5,1,M,-24,M,,*76
$GPGSA,A,3,,,,,,18,19,,26,28,29,,2.2,2.2,1.0*37
$GPGLL,3216.6711,N,3450.9777,E,173429.01,A*34
$GPRMC,173429.01,A,3216.6711,N,3450.9777,E,0.12,180.3,040609,,*31
$GPGGA,173430.01,3216.6711,N,3450.9778,E,1,04,1.5,1,M,-24,M,,*71
$GPGSA,A,3,,,,,,18,19,,26,28,29,,2.2,2.2,1.0*37
$GPGLL,3216.6711,N,3450.9778,E,173430.01,A*33
$GPRMC,173430.01,A,3216.6711,N,3450.9778,E,0.16,136.6,040609,,*3A
$GPGGA,173431.01,3216.6711,N,3450.9786,E,1,04,1.5,1,M,-24,M,,*71
$GPGSA,A,3,,,,,,18,19,,26,28,29,,2.2,2.2,1.0*37
$GPGLL,3216.6711,N,3450.9786,E,173431.01,A*33
$GPRMC,173431.01,A,3216.6711,N,3450.9786,E,2.59,100.3,040609,,*33
$GPGGA,173432.01,3216.6714,N,3450.9817,E,1,04,1.5,1,M,-24,M,,*70
$GPGSA,A,3,,,,,,18,19,,26,28,29,,2.2,2.2,1.0*37
$GPGLL,3216.6714,N,3450.9817,E,173432.01,A*32
$GPRMC,173432.01,A,3216.6714,N,3450.9817,E,9.12,83.7,040609,,*08
$GPGGA,173433.01,3216.6699,N,3450.9856,E,1,04,1.5,1,M,-24,M,,*70
$GPGSA,A,3,,,,,,18,19,,26,28,29,,2.2,2.2,1.0*37
$GPGLL,3216.6699,N,3450.9856,E,173433.01,A*32
$GPRMC,173433.01,A,3216.6699,N,3450.9856,E,13.24,114.8,040609,,*06
$GPGGA,173434.01,3216.6684,N,3450.9894,E,1,04,1.5,1,M,-24,M,,*75
$GPGSA,A,3,,,,,,18,19,,26,28,29,,2.2,2.2,1.0*37
$GPGLL,3216.6684,N,3450.9894,E,173434.01,A*37
$GPRMC,173434.01,A,3216.6684,N,3450.9894,E,12.87,115.1,040609,,*03
$GPGGA,173435.01,3216.6662,N,3450.9930,E,1,04,1.5,1,M,-24,M,,*73
$GPGSA,A,3,,,,,,18,19,,26,28,29,,2.2,2.2,1.0*37
$GPGLL,3216.6662,N,3450.9930,E,173435.01,A*31
$GPRMC,173435.01,A,3216.6662,N,3450.9930,E,13.70,125.8,040609,,*06
$GPGGA,173436.01,3216.6632,N,3450.9966,E,1,04,1.5,1,M,-24,M,,*76
$GPGSA,A,3,,,,,,18,19,,26,28,29,,2.2,2.2,1.0*37
$GPGLL,3216.6632,N,3450.9966,E,173436.01,A*34
$GPRMC,173436.01,A,3216.6632,N,3450.9966,E,15.18,134.6,040609,,*05
$GPGGA,173437.01,3216.6597,N,3450.9989,E,1,04,1.5,1,M,-24,M,,*7A
$GPGSA,A,3,,,,,,18,19,,26,28,29,,2.2,2.2,1.0*37
$GPGLL,3216.6597,N,3450.9989,E,173437.01,A*38
$GPRMC,173437.01,A,3216.6597,N,3450.9989,E,14.29,150.5,040609,,*0B
$GPGGA,173438.01,3216.6552,N,3451.0028,E,1,04,1.5,1,M,-24,M,,*76
$GPGSA,A,3,,,,,,18,19,,26,28,29,,2.2,2.2,1.0*37
$GPGLL,3216.6552,N,3451.0028,E,173438.01,A*34
$GPRMC,173438.01,A,3216.6552,N,3451.0028,E,20.35,143.5,040609,,*0F
$GPGGA,173439.01,3216.6501,N,3451.0073,E,1,04,1.5,1,M,-24,M,,*7F
$GPGSA,A,3,,,,,,18,19,,26,28,29,,2.2,2.2,1.0*37
$GPGLL,3216.6501,N,3451.0073,E,173439.01,A*3D
$GPRMC,173439.01,A,3216.6501,N,3451.0073,E,22.68,143.3,040609,,*0A
$GPGGA,173440.01,3216.6446,N,3451.0121,E,1,04,1.5,1,M,-24,M,,*75
$GPGSA,A,3,,,,,,18,19,,26,28,29,,2.2,2.2,1.0*37
$GPGLL,3216.6446,N,3451.0121,E,173440.01,A*37
$GPRMC,173440.01,A,3216.6446,N,3451.0121,E,24.78,143.6,040609,,*02
$GPGGA,173441.01,3216.6386,N,3451.0173,E,1,04,1.5,1,M,-24,M,,*78
$GPGSA,A,3,,,,,,18,19,,26,28,29,,2.2,2.2,1.0*37
$GPGLL,3216.6386,N,3451.0173,E,173441.01,A*3A
$GPRMC,173441.01,A,3216.6386,N,3451.0173,E,26.61,143.8,040609,,*0B
$GPGGA,173442.01,3216.6323,N,3451.0227,E,1,04,1.5,1,M,-24,M,,*76
$GPGSA,A,3,,,,,,18,19,,26,28,29,,2.2,2.2,1.0*37
$GPGLL,3216.6323,N,3451.0227,E,173442.01,A*34
$GPRMC,173442.01,A,3216.6323,N,3451.0227,E,28.22,143.9,040609,,*0D
$GPGGA,173443.01,3216.6255,N,3451.0286,E,1,04,1.5,1,M,-24,M,,*7C
$GPGSA,A,3,,,,,,18,19,,26,28,29,,2.2,2.2,1.0*37
$GPGLL,3216.6255,N,3451.0286,E,173443.01,A*3E
$GPRMC,173443.01,A,3216.6255,N,3451.0286,E,29.95,143.9,040609,,*0A
$GPGGA,173444.01,3216.6184,N,3451.0345,E,1,04,1.5,1,M,-24,M,,*7A
$GPGSA,A,3,,,,,,18,19,,26,28,29,,2.2,2.2,1.0*37
$GPGLL,3216.6184,N,3451.0345,E,173444.01,A*38
$GPRMC,173444.01,A,3216.6184,N,3451.0345,E,31.20,144.5,040609,,*00
$GPGGA,173445.01,3216.6111,N,3451.0408,E,1,04,1.5,1,M,-24,M,,*79
$GPGSA,A,3,,,,,,18,19,,26,28,29,,2.2,2.2,1.0*37
$GPGLL,3216.6111,N,3451.0408,E,173445.01,A*3B
$GPRMC,173445.01,A,3216.6111,N,3451.0408,E,32.31,144.3,040609,,*06
$GPGGA,173446.01,3216.6035,N,3451.0472,E,1,04,1.5,1,M,-24,M,,*70
$GPGSA,A,3,,,,,,18,19,,26,28,29,,2.2,2.2,1.0*37
$GPGLL,3216.6035,N,3451.0472,E,173446.01,A*32
$GPRMC,173446.01,A,3216.6035,N,3451.0472,E,33.14,144.8,040609,,*02
$GPGGA,173447.01,3216.5958,N,3451.0538,E,1,04,1.5,1,M,-24,M,,*7F
$GPGSA,A,3,,,,,,18,19,,26,28,29,,2.2,2.2,1.0*37
